[
	{
		"country":"폴란드","lng":21.0122287,
		"data":[{"year":1999,"grade":3,"name":"박노을","birth":"1976\/1위없음","instrument":"첼로","video":""},{"year":2011,"grade":3,"name":"임희영","birth":"1987\/2위없음","instrument":"첼로","video":"https:\/\/youtu.be\/tsCOKbTizN4"}],
		"id":1,
		"compname":"Witold Lutoslawski International Cello Competition",
		"region":"바르샤바",
		"lat":52.2296756
	},
	{
		"country":"스웨덴","lng":16.192421,
		"data":[{"year":2010,"grade":1,"name":"이재식","birth":"","instrument":"성악","video":""}],
		"id":2,
		"compname":"Wilhelm Stenhammar International Music Competition",
		"region":"노르셰핑",
		"lat":58.587745
	},
	{"country":"독일","lng":11.3235439,"data":[{"year":2012,"grade":1,"name":"트리오가스파르(피아노 임효선)","birth":"","instrument":"피아노 트리오","video":""}],
"id":3,"compname":"Weimar International Music Competitions","region":"바이마르","lat":50.9794934},{"country":"아일랜드","lng":-6.2603097,"data":[{"year":2008,"grade":3,"name":"황인수","birth":"","instrument":"성악","video":""}],"id":4,"compname":"Veronica Dunne International Singing Competition","region":"더블린","lat":53.3498053},{"country":"미국","lng":-97.3307658,"data":[{"year":2017,"grade":1,"name":"선우예권","birth":1989,"instrument":"피아노","video":"https:\/\/youtu.be\/r1rCdLGRb08"}],"id":5,"compname":"Van Cliburn International Piano Competition","region":"포트워스","lat":32.7554883},{"country":"스페인","lng":-0.3762881,"data":[{"year":2008,"grade":2,"name":"김소연","birth":"1981\/1위없음","instrument":"피아노","video":""},{"year":1996,"grade":3,"name":"김정은","birth":"1969\/1위없음","instrument":"피아노","video":""}],"id":6,"compname":"Valencia International Piano Competition 'Iturbi Prize'","region":"발렌시아","lat":39.4699075},{"country":"대한민국","lng":28.2292712,"data":[{"year":2014,"grade":1,"name":"김상윤","birth":"","instrument":"클라리넷","video":""}],"id":7,"compname":"Unisa International Music Competitions","region":"프리토리아","lat":-25.7478676},{"country":"노르웨이","lng":10.3950528,"data":[{"year":2003,"grade":3,"name":"김트리오","birth":"2000년 결성","instrument":"피아노 트리오","video":""},{"year":2015,"grade":3,"name":"트리오 제이드","birth":"2006년 결성","instrument":"피아노 트리오","video":"https:\/\/youtu.be\/XLW34scPW4o"},{"year":2011,"grade":2,"name":"푸르니에 트리오 (바이올린 유슬기)","birth":"2009년 결정","instrument":"피아노 트리오","video":""}],"id":8,"compname":"Trondheim International Chamber Music Competition and Academy","region":"트론헤임","lat":63.4305149},{"country":"노르웨이","lng":18.9553239,"data":[{"year":2015,"grade":2,"name":"박종해","birth":"1위없음","instrument":"피아노","video":""}],"id":9,"compname":"Tromsø Top of the World International Piano Competition","region":"트롬쇠","lat":69.6492047},{"country":"일본","lng":139.6917064,"data":[{"year":1979,"grade":2,"name":"김홍재(일본국적)","birth":1954,"instrument":"지휘","video":""},{"year":1997,"grade":2,"name":"장윤성","birth":1963,"instrument":"지휘","video":""}],"id":10,"compname":"Tokyo International Music Competition for Conducting","region":"도쿄","lat":35.6894875},{"country":"스위스","lng":7.360626,"data":[{"year":1974,"grade":1,"name":"김남윤","birth":1949,"instrument":"바이올린","video":"https:\/\/youtu.be\/BQSFJdXYCBU"},{"year":2004,"grade":1,"name":"박지윤","birth":1986,"instrument":"바이올린","video":"https:\/\/youtu.be\/-G3Md6DdnI0"}],"id":11,"compname":"Tibor Varga International Violin Competition Sion Valais","region":"시온","lat":46.2331221},{"country":"노르웨이","lng":10.7522454,"data":[{"year":2017,"grade":1,"name":"박승주","birth":1990,"instrument":"성악","video":"https:\/\/youtu.be\/cT1X3Mt-8p4"},{"year":2011,"grade":1,"name":"이동환","birth":1981,"instrument":"성악","video":"https:\/\/youtu.be\/f9tA5FXMWDc"},{"year":2009,"grade":1,"name":"정승기","birth":"","instrument":"성악","video":""}],"id":12,"compname":"The Queen Sonja International Music Competition","region":"오슬로","lat":59.9138688},{"country":"핀란드","lng":24.9383791,"data":[{"year":2014,"grade":1,"name":"김범진","birth":1990,"instrument":"성악","video":"https:\/\/youtu.be\/h8Tf7vhgheg"},{"year":2005,"grade":1,"name":"김우경","birth":1977,"instrument":"성악","video":"https:\/\/youtu.be\/Wha3f-IUG5Q"},{"year":2009,"grade":1,"name":"심기환","birth":1983,"instrument":"성악","video":"https:\/\/youtu.be\/5ttzJHzbkz4"}],"id":13,"compname":"The Mirjam Helin International Singing Competition","region":"헬싱키","lat":60.1698557},{"country":"폴란드","lng":21.0122287,"data":[{"year":2015,"grade":1,"name":"조성진","birth":"","instrument":"피아노","video":"https:\/\/youtu.be\/614oSsDS734"}],"id":14,"compname":"The International Fryderyk Chopin Piano Competition","region":"바르샤바","lat":52.2296756},{"country":"노르웨이","lng":5.3220544,"data":[{"year":2016,"grade":1,"name":"안아름","birth":1984,"instrument":"피아노","video":"https:\/\/youtu.be\/hMJ83jE2px4"}],"id":15,"compname":"The International Edvard Grieg Piano Competition","region":"베르겐","lat":60.3912628},{"country":"일본","lng":137.7261258,"data":[{"year":2009,"grade":1,"name":"조성진","birth":1994,"instrument":"피아노","video":"https:\/\/youtu.be\/o0hv8VOvdJs"}],"id":16,"compname":"The Hamamatsu International Piano Competition","region":"하마마츠","lat":34.7108344},{"country":"일본","lng":139.3158056,"data":[{"year":2006,"grade":1,"name":"강승민","birth":1987,"instrument":"첼로","video":"https:\/\/youtu.be\/BYY6u6-uACs"}],"id":17,"compname":"The Gaspar Cassado International Violoncello Competition","region":"하치오지","lat":35.6663394},{"country":"이스라엘","lng":34.7817676,"data":[{"year":1998,"grade":3,"name":"박종경","birth":1977,"instrument":"피아노","video":""},{"year":2005,"grade":3,"name":"손열음","birth":1986,"instrument":"피아노","video":"https:\/\/youtu.be\/zj_pyyQmeDg"},{"year":2014,"grade":3,"name":"조성진","birth":1994,"instrument":"피아노","video":"https:\/\/youtu.be\/9_nx3TIbf0k"}],"id":18,"compname":"The Arthur Rubinstein International Piano Master Competition Founded by Jan Jacob Bistritzky","region":"텔아비브","lat":32.0852999},{"country":"일본","lng":134.046574,"data":[{"year":2014,"grade":1,"name":"문지영","birth":"","instrument":"피아노","video":""}],"id":19,"compname":"Takamatsu International Piano Competition","region":"다카마츠","lat":34.3427879},{"country":"대한민국","lng":126.9779692,"data":[{"year":2016,"grade":1,"name":"김기훈","birth":1992,"instrument":"성악","video":"https:\/\/youtu.be\/2Ppad9BHj6I"},{"year":2013,"grade":1,"name":"김범진","birth":"","instrument":"성악","video":""},{"year":2017,"grade":1,"name":"신창용","birth":1994,"instrument":"피아노","video":"https:\/\/youtu.be\/TmFzBTXCxFA"},{"year":2009,"grade":1,"name":"클라라 주미 강","birth":"","instrument":"바이올린","video":""},{"year":2014,"grade":1,"name":"한지호","birth":1992,"instrument":"피아노","video":"https:\/\/youtu.be\/YSCp4cblOnc"}],"id":20,"compname":"Seoul International Music Competition","region":"서울","lat":37.566535},{"country":"일본","lng":140.8693558,"data":[{"year":2016,"grade":1,"name":"김현정","birth":1992,"instrument":"피아노","video":"https:\/\/youtu.be\/HisIRyTwU4c"},{"year":2013,"grade":1,"name":"선우예권","birth":"","instrument":"피아노","video":""},{"year":2016,"grade":1,"name":"장유진","birth":1990,"instrument":"바이올린","video":"https:\/\/youtu.be\/zd84QuD0E64"},{"year":2010,"grade":1,"name":"클라라 주미 강","birth":"","instrument":"바이올린","video":""}],"id":21,"compname":"Sendai International Music Competition","region":"센다이","lat":38.268215},{"country":"중국","lng":126.534967,"data":[{"year":2014,"grade":1,"name":"송지원","birth":"","instrument":"바이올린","video":""},{"year":2014,"grade":1,"name":"여윤수","birth":1991,"instrument":"첼로","video":"https:\/\/youtu.be\/j3ypr8W6qvA"},{"year":2013,"grade":1,"name":"조진주","birth":1988,"instrument":"바이올린","video":"https:\/\/youtu.be\/8hYqatZMza0"},{"year":2014,"grade":1,"name":"허자경","birth":1997,"instrument":"첼로","video":"https:\/\/youtu.be\/K0lwIjQtQKE"}],"id":22,"compname":"Schoenfeld International String Competition","region":"하얼빈","lat":45.803775},{"country":"벨기에","lng":4.3517211,"data":[{"year":2015,"grade":1,"name":"임지영","birth":1995,"instrument":"바이올린","video":"https:\/\/youtu.be\/jRI_PVrk_Mg"},{"year":2009,"grade":1,"name":"전민재","birth":1987,"instrument":"작곡","video":"https:\/\/youtu.be\/jMOXPVjkwlw"},{"year":2008,"grade":1,"name":"조은화","birth":1973,"instrument":"작곡","video":"https:\/\/youtu.be\/nT55h8Ey8hY"},{"year":2011,"grade":1,"name":"홍혜란","birth":1991,"instrument":"성악","video":"https:\/\/youtu.be\/dThZas2jEIM"},{"year":2014,"grade":1,"name":"황수미","birth":1986,"instrument":"성악","video":"https:\/\/youtu.be\/9FSmCU4LOzI"}],"id":23,"compname":"Queen Elisabeth Competition","region":"브뤼셀","lat":50.8503463},{"country":"체코","lng":14.4378005,"data":[{"year":2015,"grade":1,"name":"김상윤","birth":1987,"instrument":"클라리넷","video":"https:\/\/youtu.be\/3D8EBl5f4-U"},{"year":2015,"grade":1,"name":"김유빈","birth":1997,"instrument":"플루트","video":"https:\/\/youtu.be\/xq8IuHIZcjo"},{"year":2016,"grade":1,"name":"박진형","birth":1996,"instrument":"피아노","video":"https:\/\/youtu.be\/ldeWPfd2ZLQ"}],"id":24,"compname":"Prague Spring International Music Competition","region":"프라하","lat":50.0755381},{"country":"스페인","lng":-3.8099803,"data":[{"year":1998,"grade":1,"name":"유영욱","birth":"","instrument":"피아노","video":""}],"id":25,"compname":"Paloma O\u2018Shea Santander International Piano Competition","region":"산탄데르","lat":43.4623057},{"country":"폴란드","lng":18.0084378,"data":[{"year":2013,"grade":1,"name":"문지영","birth":"??(동명이인)","instrument":"피아노","video":""},{"year":2016,"grade":1,"name":"이혁","birth":2000,"instrument":"피아노","video":"https:\/\/youtu.be\/Lg_bf2x97Qk"}],"id":26,"compname":"Paderewski International Piano Competition","region":"비드고쉬치","lat":53.1234804},{"country":"일본","lng":135.5021651,"data":[{"year":2011,"grade":3,"name":"노부스콰르텟","birth":"","instrument":"현악4중주","video":""}],"id":27,"compname":"Osaka International Chamber Music Competition","region":"오사카","lat":34.6937378},{"country":"프랑스","lng":1.909251,"data":[{"year":2010,"grade":2,"name":"길예진","birth":"1982\/1위없음","instrument":"피아노","video":"https:\/\/youtu.be\/jEzR5RfE8-4"}],"id":28,"compname":"Orleans International Piano Competition","region":"오를레앙","lat":47.902964},{"country":"일본","lng":137.7261258,"data":[{"year":2002,"grade":1,"name":"박현주","birth":1975,"instrument":"성악","video":"https:\/\/youtu.be\/HXPAn5jgj1o"}],"id":29,"compname":"Mt. Fuji International Opera Competition of Shizuoka","region":"하마마츠, 시즈오카","lat":34.7108344},{"country":"독일","lng":12.3281398,"data":[{"year":2017,"grade":3,"name":"김세준","birth":"1988\/3위없음","instrument":"비올라","video":""},{"year":2014,"grade":3,"name":"김우연","birth":"1991\/2위없음","instrument":"클라리넷","video":"https:\/\/youtu.be\/TqwSTpvfCMY"},{"year":2011,"grade":3,"name":"성민제","birth":"1위없음","instrument":"더블베이스","video":""}],"id":30,"compname":"MARKNEUKIRCHEN International Instrumental Competition","region":"마르크노이키르헨","lat":50.3115699},{"country":"스페인","lng":2.1734035,"data":[{"year":1995,"grade":1,"name":"김원","birth":1973,"instrument":"피아노","video":"https:\/\/youtu.be\/-kUKUYs-Roo"},{"year":2004,"grade":1,"name":"김응수,채문영","birth":1976,"instrument":"듀오","video":"https:\/\/youtu.be\/Ab7UN0D64Hs"},{"year":2012,"grade":1,"name":"안수정","birth":1988,"instrument":"피아노","video":"https:\/\/youtu.be\/Ab7UN0D64Hs"}],"id":31,"compname":"Maria Canals International Music Competition","region":"바르셀로나","lat":41.3850639},{"country":"프랑스","lng":4.835659,"data":[{"year":2009,"grade":3,"name":"노부스콰르텟","birth":"2007년 창단\/1위없음","instrument":"현악4중주","video":"https:\/\/youtu.be\/Jdt8Q_XU7TY"},{"year":2015,"grade":2,"name":"아벨콰르텟","birth":"2012년 창단","instrument":"현악4중주","video":"https:\/\/youtu.be\/1jCX8xvcr0I"}],"id":32,"compname":"Lyon International Chamber Music Competition","region":"리옹","lat":45.764043},{"country":"영국","lng":-1.5490774,"data":[{"year":2006,"grade":1,"name":"김선욱","birth":1988,"instrument":"피아노","video":"https:\/\/youtu.be\/UHSpZDhD4Dg"}],"id":33,"compname":"Leeds International Piano Competition","region":"리즈","lat":53.8007554},{"country":"일본","lng":135.1955112,"data":[{"year":2017,"grade":3,"name":"한여진","birth":"2002\/1위없음","instrument":"플루트","video":""}],"id":34,"compname":"Kobe International Flute Competition","region":"고베","lat":34.690083},{"country":"독일","lng":9.7320104,"data":[{"year":2012,"grade":1,"name":"김다미","birth":1988,"instrument":"바이올린","video":"https:\/\/youtu.be\/KbLd7abMPUM"},{"year":2006,"grade":1,"name":"김수연","birth":"","instrument":"바이올린","video":""}],"id":35,"compname":"Joseph Joachim International Violin Competition Hannover","region":"하노버","lat":52.3758916},{"country":"대한민국","lng":126.4983023,"data":[{"year":2010,"grade":1,"name":"김태훈","birth":"??","instrument":"베이스트롬본","video":""},{"year":2017,"grade":1,"name":"김현호","birth":1992,"instrument":"트럼펫","video":"https:\/\/youtu.be\/5QntIK1QjbM"},{"year":2017,"grade":1,"name":"주인혜","birth":1990,"instrument":"테너 트롬본","video":""},{"year":2012,"grade":"","name":"타카히로 김","birth":"??","instrument":"튜바","video":""}],"id":36,"compname":"Jeju International Brass Competition","region":"제주","lat":33.4890113},{"country":"대한민국","lng":128.433182,"data":[{"year":2013,"grade":1,"name":"김홍기","birth":1991,"instrument":"피아노","video":"https:\/\/youtu.be\/RmE6E0S6GGI"},{"year":2016,"grade":1,"name":"서형민","birth":1990,"instrument":"피아노","video":"https:\/\/youtu.be\/ImVjTa-o2Cg"},{"year":2006,"grade":1,"name":"이정란","birth":1982,"instrument":"첼로","video":"https:\/\/youtu.be\/br25QsEtDnE"},{"year":2017,"grade":1,"name":"송지원","birth":"","instrument":"바이올린","video":""}],"id":37,"compname":"ISANGYUN Competition","region":"통영","lat":34.8544227},{"country":"스페인","lng":-2.9349852,"data":[{"year":2000,"grade":1,"name":"강형규","birth":1973,"instrument":"성악","video":"https:\/\/youtu.be\/8BtFTpxWI_M"},{"year":2008,"grade":1,"name":"박종민","birth":1986,"instrument":"성악","video":"https:\/\/youtu.be\/klKDenERwsQ"},{"year":1998,"grade":1,"name":"배재철","birth":1969,"instrument":"성악","video":"https:\/\/youtu.be\/QSnVR4X_xnk"},{"year":2012,"grade":1,"name":"정승기","birth":1979,"instrument":"성악","video":"https:\/\/youtu.be\/VuW4QIfTaVQ"},{"year":1996,"grade":1,"name":"조경화","birth":1966,"instrument":"성악","video":"https:\/\/youtu.be\/3MsMNu7APkk"},{"year":2012,"grade":1,"name":"조선형","birth":1980,"instrument":"성악","video":"https:\/\/youtu.be\/neP9IV4E95I"},{"year":2010,"grade":1,"name":"허종훈","birth":1989,"instrument":"성악","video":"https:\/\/youtu.be\/4S-Qn8pzOFs"}],"id":38,"compname":"International Voice Competition of Bilbao-Bizkaia 'Pedro Mª. Unanue'","region":"빌바오","lat":43.2630126},{"country":"네덜란드","lng":5.3036748,"data":[{"year":2008,"grade":1,"name":"유한승","birth":"","instrument":"성악","video":""}],"id":39,"compname":"International Vocal Competition \u2018s-Hertogenbosch","region":"스헤르토헨보스","lat":51.6978162},{"country":"미국","lng":-86.158068,"data":[{"year":2014,"grade":1,"name":"조진주","birth":"","instrument":"바이올린","video":""},{"year":1994,"grade":1,"name":"줄리엣강","birth":1975,"instrument":"바이올린","video":"https:\/\/youtu.be\/wmx0O_OmTUo"},{"year":2010,"grade":1,"name":"클라라 주미 강","birth":1987,"instrument":"바이올린","video":"https:\/\/youtu.be\/2W1Ni31A4yQ"}],"id":40,"compname":"International Violin Competition of Indianapolis","region":"인디애나폴리스","lat":39.768403},{"country":"독일","lng":10.89779,"data":[{"year":2003,"grade":1,"name":"김수연","birth":1987,"instrument":"바이올린","video":"https:\/\/youtu.be\/2otttekjPJ4"},{"year":2016,"grade":1,"name":"송지원","birth":1992,"instrument":"바이올린","video":"https:\/\/youtu.be\/L8YFzp5iZfM"},{"year":2006,"grade":1,"name":"이유라","birth":1985,"instrument":"바이올린","video":"https:\/\/youtu.be\/rwMJKwRw9Ms"},{"year":2009,"grade":1,"name":"이지혜","birth":1986,"instrument":"바이올린","video":"https:\/\/youtu.be\/rrjm_o_VsJA"}],"id":41,"compname":"International Violin Competition Leopold Mozart","region":"아우크스부르크","lat":48.3705449},{"country":"독일","lng":13.4998575,"data":[{"year":2011,"grade":3,"name":"임지영","birth":"1위없음","instrument":"바이올린","video":""}],"id":42,"compname":"International Violin Competition Henri Marteau","region":"리히텐베르크","lat":52.5335904},{"country":"이탈리아","lng":8.946256,"data":[{"year":1996,"grade":1,"name":"김수빈(미국국적)","birth":1976,"instrument":"바이올린","video":"https:\/\/youtu.be\/U68zIxaSi9k"},{"year":2015,"grade":1,"name":"양인모","birth":1995,"instrument":"바이올린","video":"https:\/\/youtu.be\/4BQnPqCW8fQ"}],"id":43,"compname":"International Violin Competition 'Premio Paganini'","region":"제노아","lat":44.4056499},{"country":"독일","lng":7.0982068,"data":[{"year":2013,"grade":1,"name":"안수정","birth":"","instrument":"피아노","video":""},{"year":2007,"grade":1,"name":"유영욱","birth":1977,"instrument":"피아노","video":"https:\/\/youtu.be\/RYy_HVrQTjs"}],"id":44,"compname":"International Telekom Beethoven Competition","region":"본","lat":50.73743},{"country":"러시아","lng":37.6172999,"data":[{"year":2011,"grade":1,"name":"박종민","birth":"","instrument":"성악","video":""},{"year":2011,"grade":1,"name":"서선영","birth":1984,"instrument":"성악","video":"https:\/\/youtu.be\/S0lzmOhxn_s"},{"year":1990,"grade":1,"name":"최현수(미국국적)","birth":1958,"instrument":"성악","video":"https:\/\/youtu.be\/rHJ5KYdczGo"}],"id":45,"compname":"International Tchaikovsky Competition","region":"모스크바","lat":55.755826},{"country":"프랑스","lng":1.444209,"data":[{"year":2000,"grade":1,"name":"공병우","birth":1974,"instrument":"성악","video":"https:\/\/youtu.be\/HRK8iMNNg6o"},{"year":2016,"grade":1,"name":"길병민","birth":1994,"instrument":"성악","video":"https:\/\/youtu.be\/xKqCKrT33rM"},{"year":2014,"grade":1,"name":"김정훈","birth":1988,"instrument":"성악","video":"https:\/\/youtu.be\/sPrzb8lR96Q"},{"year":2012,"grade":1,"name":"김주택","birth":1986,"instrument":"성악","video":"https:\/\/youtu.be\/igagzYtzImo"},{"year":2008,"grade":1,"name":"정승기","birth":"","instrument":"성악","video":""},{"year":1994,"grade":1,"name":"홍상곤","birth":"??","instrument":"성악","video":""}],"id":46,"compname":"International Singing Competition of Toulouse","region":"툴루즈","lat":43.604652},{"country":"독일","lng":7.4652981,"data":[{"year":2003,"grade":1,"name":"이용규","birth":1973,"instrument":"피아노","video":"https:\/\/youtu.be\/GdzapTvb16c"}],"id":47,"compname":"International Schubert Competition Dortmund","region":"도르트문트","lat":51.5135872},{"country":"스위스","lng":7.0047948,"data":[{"year":2007,"grade":2,"name":"박준호","birth":"1985\/1위 없음","instrument":"오르간","video":""}],"id":48,"compname":"International Organ Competition, Saint-Maurice d\u2019Agaune","region":"성 모리스","lat":46.214941},{"country":"일본","lng":139.6917064,"data":[{"year":2008,"grade":3,"name":"박준호","birth":"3위없음","instrument":"오르간","video":""},{"year":1996,"grade":3,"name":"신동일","birth":"2위없음","instrument":"오르간","video":""}],"id":49,"compname":"International Organ Competition Musashino-Tokyo","region":"도쿄","lat":35.6894875},{"country":"프랑스","lng":1.489012,"data":[{"year":2006,"grade":1,"name":"신동일","birth":1974,"instrument":"오르간","video":""}],"id":50,"compname":"International Organ Competition 'Grand Prix de Chartres'","region":"샤르트르","lat":48.443854},{"country":"칠레","lng":-71.5500276,"data":[{"year":1997,"grade":1,"name":"김정은","birth":"","instrument":"피아노","video":""},{"year":2013,"grade":1,"name":"이명현","birth":1988,"instrument":"성악","video":"https:\/\/youtu.be\/6KFJAltnWuo"}],"id":51,"compname":"International Musical Competition 'Dr. Luis Sigall'","region":"비나델마르","lat":-33.0153481},{"country":"독일","lng":6.9602786,"data":[{"year":1992,"grade":1,"name":"김혜정","birth":1965,"instrument":"피아노","video":""},{"year":2011,"grade":1,"name":"유한승","birth":1985,"instrument":"성악","video":"https:\/\/youtu.be\/0wc9xpy5sMY"},{"year":2003,"grade":1,"name":"윤소영","birth":1984,"instrument":"바이올린","video":"https:\/\/youtu.be\/sCY-JYryRSw"},{"year":2005,"grade":1,"name":"이진상","birth":1981,"instrument":"피아노","video":"https:\/\/youtu.be\/SSjPn-qVROo"}],"id":52,"compname":"International Music Competition Cologne","region":"쾰른","lat":50.937531},{"country":"오스트리아","lng":13.05501,"data":[{"year":2004,"grade":1,"name":"노부스콰르텟","birth":"","instrument":"현악4중주","video":""},{"year":2002,"grade":1,"name":"손혜수","birth":1976,"instrument":"성악","video":"https:\/\/youtu.be\/khAlLTSEHc4"},{"year":2002,"grade":1,"name":"유진선","birth":"??","instrument":"작곡","video":""}],"id":53,"compname":"International Mozart Competition Salzburg","region":"잘츠부르크","lat":47.80949},{"country":"독일","lng":13.404954,"data":[{"year":"","grade":1,"name":"양고운","birth":1972,"instrument":"바이올린","video":"https:\/\/youtu.be\/Y3v1nFmC-K8"},{"year":2009,"grade":1,"name":"이마리솔","birth":1988,"instrument":"바이올린","video":"https:\/\/youtu.be\/VF6hUcWzf40"},{"year":2012,"grade":1,"name":"조가현","birth":1985,"instrument":"바이올린","video":"https:\/\/youtu.be\/V9pTKn9LsQs"}],"id":54,"compname":"International Max Rostal Competition for Viola and Violin","region":"베를린","lat":52.5200066},{"country":"핀란드","lng":24.9383791,"data":[{"year":2017,"grade":3,"name":"김지영","birth":"1위없음\/1996","instrument":"피아노","video":""}],"id":55,"compname":"International Maj Lind Piano Competition","region":"헬싱키","lat":60.1698557},{"country":"리투아니아","lng":25.2796514,"data":[{"year":2015,"grade":3,"name":"박소영","birth":"??","instrument":"오르간","video":""},{"year":1999,"grade":2,"name":"신동일","birth":"2위없음","instrument":"오르간","video":""},{"year":2007,"grade":2,"name":"이가영","birth":"??","instrument":"오르간","video":""}],"id":56,"compname":"International M.K. Ciurlionis Piano and Organ Competition","region":"빌뉴스","lat":54.6871555},{"country":"독일","lng":12.3730747,"data":[{"year":2002,"grade":3,"name":"박승희","birth":"1위없음 ?","instrument":"성악","video":""}],"id":57,"compname":"International Johann Sebastian Bach Competition","region":"라이프치히","lat":51.3396955},{"country":"슬로바키아","lng":17.1077478,"data":[{"year":2014,"grade":1,"name":"김수연","birth":1994,"instrument":"피아노","video":"https:\/\/youtu.be\/tq9TpA3Nghw"}],"id":58,"compname":"International Johann Nepomuk Hummel Piano Competition","region":"브라티슬라바","lat":48.1485965},{"country":"세르비아","lng":20.4489216,"data":[{"year":2010,"grade":1,"name":"심준호","birth":1987,"instrument":"첼로","video":"https:\/\/youtu.be\/lx2hN2b2tCA"}],"id":59,"compname":"International Jeunesses Musicales Competition","region":"베오그라드","lat":44.786568},{"country":"네덜란드","lng":5.1214201,"data":[{"year":2017,"grade":2,"name":"홍민수","birth":1992,"instrument":"피아노","video":"https:\/\/youtu.be\/Mt2slbZkCAg"}],"id":60,"compname":"International Franz Liszt Piano Competition","region":"위트레흐트","lat":52.0907374},{"country":"독일","lng":11.4969238,"data":[{"year":2010,"grade":1,"name":"성미경","birth":1993,"instrument":"더블베이스","video":""},{"year":2006,"grade":1,"name":"성민제","birth":1990,"instrument":"더블베이스","video":"https:\/\/youtu.be\/-_kouy1MMZ4"}],"id":61,"compname":"International Double Bass Competition 'Johann Matthias Sperger'","region":"루드빅스루스트","lat":53.3244914},{"country":"프랑스","lng":2.3522219,"data":[{"year":2008,"grade":1,"name":"신지아","birth":1987,"instrument":"바이올린","video":"https:\/\/youtu.be\/No7NeEaVls4"},{"year":2011,"grade":1,"name":"심기환","birth":"","instrument":"성악","video":""},{"year":2001,"grade":1,"name":"임동혁","birth":1984,"instrument":"피아노","video":"https:\/\/youtu.be\/P7B5sc_DCTY"}],"id":62,"compname":"International Contest Long-Thibaud-Crespin","region":"파리","lat":48.856614},{"country":"우크라이나","lng":30.5234,"data":[{"year":2010,"grade":1,"name":"김고운","birth":"?","instrument":"피아노","video":""},{"year":2017,"grade":1,"name":"김준희","birth":1990,"instrument":"피아노","video":"https:\/\/youtu.be\/0K5MgIaX_as"}],"id":63,"compname":"International Competition for Young Pianists in Memory of Vladimir Horowitz","region":"키예프","lat":50.4501},{"country":"오스트리아","lng":15.439504,"data":[{"year":1997,"grade":1,"name":"김은정","birth":"??","instrument":"피아노듀오","video":""}],"id":64,"compname":"International Competition 'Franz Schubert and Modern Music'","region":"그라츠","lat":47.070714},{"country":"이탈리아","lng":7.3306676,"data":[{"year":2013,"grade":1,"name":"윤트리오(핀란드+한국)","birth":"2013년 결성","instrument":"피아노 트리오","video":"https:\/\/youtu.be\/tY5z5VojRcA"}],"id":65,"compname":"International Chamber Music Competition 'Pinerolo e Torino - Citta metropolitana'","region":"피네롤로","lat":44.8845906},{"country":"오스트리아","lng":16.3738189,"data":[{"year":2009,"grade":3,"name":"전지훈","birth":"1986\/1위없음","instrument":"피아노","video":""},{"year":2009,"grade":3,"name":"한지호","birth":"1위없음","instrument":"피아노","video":""}],"id":66,"compname":"International Beethoven Piano Competition Vienna","region":"비엔나","lat":48.2081743},{"country":"중국","lng":114.109497,"data":[{"year":2008,"grade":1,"name":"이진상","birth":"","instrument":"피아노","video":""}],"id":67,"compname":"Hong Kong International Piano Competition","region":"홍콩","lat":22.396428},{"country":"캐나다","lng":-114.0708459,"data":[{"year":2006,"grade":1,"name":"손민수","birth":1976,"instrument":"피아노","video":"https:\/\/youtu.be\/mYiyuPA7O-Y"}],"id":68,"compname":"Honens Piano Competition","region":"캘거리","lat":51.0486151},{"country":"폴란드","lng":19.0237815,"data":[{"year":1991,"grade":2,"name":"함신익","birth":"1957\/1위 없음","instrument":"지휘","video":"1979 1회 \/ 4년마다"}],"id":69,"compname":"Grzegorz Fitelberg International Competition for Conductors","region":"카토비체","lat":50.2648919},{"country":"루마니아","lng":26.1025384,"data":[{"year":2016,"grade":1,"name":"김계희","birth":1993,"instrument":"바이올린","video":"https:\/\/youtu.be\/7VJo1maLyf4"},{"year":2015,"grade":1,"name":"홍은선","birth":1989,"instrument":"첼로","video":"https:\/\/youtu.be\/KkqZxmcm3Xo"}],"id":70,"compname":"George Enescu International Competition","region":"부쿠레슈티","lat":44.4267674},{"country":"스위스","lng":6.1431577,"data":[{"year":2014,"grade":1,"name":"문지영","birth":"","instrument":"피아노","video":""},{"year":1971,"grade":1,"name":"정명화","birth":1944,"instrument":"첼로","video":"https:\/\/youtu.be\/hLQElPuo2Zc"},{"year":2013,"grade":1,"name":"조광호","birth":1987,"instrument":"작곡","video":"https:\/\/youtu.be\/t6qtE0gcLq0"}],"id":71,"compname":"Geneva International Music Competition","region":"제네바","lat":46.2043907},{"country":"프랑스","lng":6.449403,"data":[{"year":2003,"grade":1,"name":"김성훈","birth":1979,"instrument":"피아노","video":""},{"year":2011,"grade":1,"name":"김다솔","birth":1989,"instrument":"피아노","video":"https:\/\/youtu.be\/IDvvojjQZxA"},{"year":2007,"grade":1,"name":"임호열","birth":1985,"instrument":"피아노","video":"https:\/\/youtu.be\/npjI4le9oCI"}],"id":72,"compname":"EPINAL International Piano Competition","region":"에피날","lat":48.172402},{"country":"아일랜드","lng":-6.2603097,"data":[{"year":2006,"grade":2,"name":"김규연","birth":1985,"instrument":"피아노","video":"https:\/\/youtu.be\/TpibcfHy8NI"},{"year":2009,"grade":2,"name":"박종해","birth":1990,"instrument":"피아노","video":"https:\/\/youtu.be\/KzoE0eZ0fnQ"}],"id":73,"compname":"Dublin International Piano Competition","region":"더블린","lat":53.3498053},{"country":"미국","lng":-80.1917902,"data":[{"year":2013,"grade":2,"name":"유앤김 듀오","birth":"","instrument":"피아노 듀오","video":""}],"id":74,"compname":"Dranoff International 2 Piano Competition","region":"마이애미","lat":25.7616798},{"country":"캐나다","lng":-73.567256,"data":[{"year":2015,"grade":1,"name":"김건우","birth":1985,"instrument":"테너","video":"https:\/\/youtu.be\/rwVKDzrl62s"},{"year":2006,"grade":1,"name":"조진주","birth":"","instrument":"바이올린","video":""},{"year":2005,"grade":1,"name":"황신녕","birth":1972,"instrument":"성악","video":""}],"id":75,"compname":"Concours musical international de Montreal (CMIM)","region":"몬트리올","lat":45.5016889},{"country":"이탈리아","lng":8.4185735,"data":[{"year":2002,"grade":1,"name":"손열음","birth":"","instrument":"피아노","video":""},{"year":2003,"grade":1,"name":"임효선","birth":1981,"instrument":"피아노","video":"https:\/\/youtu.be\/b3uKh2CdLMY"},{"year":1985,"grade":1,"name":"조수미","birth":1962,"instrument":"성악","video":"https:\/\/youtu.be\/ZAiCbYc4hQ0"},{"year":2015,"grade":1,"name":"조찬희","birth":1993,"instrument":"성악","video":"https:\/\/youtu.be\/8Z3QwElTtyc"}],"id":76,"compname":"Concours International de Musique Gian Battista Viotti","region":"베르첼리","lat":45.3202272},{"country":"미국","lng":-81.6943605,"data":[{"year":1985,"grade":1,"name":"김대진","birth":1962,"instrument":"피아노","video":"https:\/\/youtu.be\/aWq4mvZgsRM"},{"year":1983,"grade":1,"name":"안영신","birth":"??","instrument":"피아노","video":""}],"id":77,"compname":"Cleveland International Piano Competition","region":"클리블랜드","lat":41.49932},{"country":"스위스","lng":6.8419192,"data":[{"year":2005,"grade":1,"name":"김선욱","birth":"","instrument":"피아노","video":""}],"id":78,"compname":"Clara Haskil International Piano Competition","region":"브베","lat":46.4628333},{"country":"중국","lng":120.382609,"data":[{"year":2011,"grade":2,"name":"양제경","birth":"1985\/1위없음","instrument":"성악","video":""},{"year":2012,"grade":1,"name":"김봄소리","birth":1989,"instrument":"바이올린","video":"https:\/\/youtu.be\/sxelnXmdA7E"},{"year":2014,"grade":1,"name":"송지원","birth":"","instrument":"바이올린","video":""}],"id":79,"compname":"China International Violin Competition","region":"칭다오","lat":36.067108},{"country":"덴마크","lng":10.40237,"data":[{"year":2005,"grade":1,"name":"권혁주","birth":"1985-2016","instrument":"바이올린","video":"https:\/\/youtu.be\/T3uUllEXRDc"},{"year":2016,"grade":1,"name":"이지윤","birth":1992,"instrument":"바이올린","video":"https:\/\/youtu.be\/xqrLXqEbGAA"}],"id":80,"compname":"Carl Nielsen International Music Competition","region":"오덴세","lat":55.403756},{"country":"헝가리","lng":19.040235,"data":[{"year":2006,"grade":1,"name":"성시연","birth":1976,"instrument":"지휘","video":"https:\/\/youtu.be\/SvBAvvJOB10"}],"id":81,"compname":"Budapest International Music Competitions","region":"부다페스트","lat":47.497912},{"country":"프랑스","lng":-0.57918,"data":[{"year":2005,"grade":1,"name":"파커 콰르텟","birth":"2002년 창단","instrument":"현악4중주","video":"https:\/\/youtu.be\/OKfl2k3jY8o"}],"id":82,"compname":"Bordeaux International String Quartet Competition","region":"보르도","lat":44.837789},{"country":"중국","lng":116.4073963,"data":[{"year":2012,"grade":3,"name":"조성현","birth":1990,"instrument":"플루트","video":"https:\/\/youtu.be\/SwNW_h5u4A4"}],"id":83,"compname":"Beijing International Music Competition","region":"베이징","lat":39.9041999},{"country":"독일","lng":11.5819805,"data":[{"year":2003,"grade":1,"name":"김동섭","birth":1974,"instrument":"성악","video":"https:\/\/youtu.be\/ggLQNZepbxw"},{"year":2009,"grade":1,"name":"박혜윤","birth":1992,"instrument":"바이올린","video":"https:\/\/youtu.be\/MXd828QgreQ"},{"year":2017,"grade":1,"name":"손정범","birth":1991,"instrument":"피아노","video":"https:\/\/youtu.be\/gt1oL8qo00U"},{"year":2006,"grade":1,"name":"양준모","birth":1980,"instrument":"성악","video":""},{"year":2013,"grade":1,"name":"이유라","birth":"","instrument":"비올라","video":""}],"id":84,"compname":"ARD International Music Competition","region":"뮌헨","lat":48.1351253},{"country":"아르메니아","lng":44.4991029,"data":[{"year":2016,"grade":1,"name":"박준성","birth":1982,"instrument":"지휘","video":""}],"id":85,"compname":"Aram Khachaturian International Competition","region":"예레반","lat":40.1791857},{"country":"독일","lng":12.4733725,"data":[{"year":1993,"grade":1,"name":"정록기","birth":1962,"instrument":"성악","video":"https:\/\/youtu.be\/dVRIXf8zJko"}],"id":86,"compname":"'Robert Schumann' International Competition","region":"츠비카우","lat":50.7102169},{"country":"뉴질랜드","lng":174.7633315,"data":[{"year":2015,"grade":1,"name":"강수연","birth":1989,"instrument":"바이올린","video":"https:\/\/youtu.be\/94RHh9lJMaw"}],"id":87,"compname":"'Michael Hill' International Violin Competition","region":"오클랜드","lat":-36.8484597},{"country":"핀란드","lng":24.9383791,"data":[{"year":2015,"grade":1,"name":"크리스텔리(미국국적)","birth":1990,"instrument":"바이올린","video":"https:\/\/youtu.be\/ht-_qUHamhM"}],"id":88,"compname":"'Jean Sibelius' International Violin Competition","region":"헬싱키","lat":60.1698557},{"country":"폴란드","lng":16.9251681,"data":[{"year":2011,"grade":1,"name":"윤소영","birth":"","instrument":"바이올린","video":""},{"year":2001,"grade":2,"name":"한수진","birth":1986,"instrument":"바이올린","video":""}],"id":89,"compname":"'Henryk Wieniawski' International Violin Competition","region":"포즈난","lat":52.406374},{"country":"스위스","lng":8.541694,"data":[{"year":2009,"grade":1,"name":"이진상","birth":"","instrument":"피아노","video":"https:\/\/youtu.be\/K6H22LGoBZ4"}],"id":90,"compname":"'Geza Anda' International Piano Competition","region":"취리히","lat":47.3768866},{"country":"이탈리아","lng":11.3547582,"data":[{"year":2015,"grade":1,"name":"문지영","birth":1995,"instrument":"피아노","video":"https:\/\/youtu.be\/dqu1yByjA6g"}],"id":91,"compname":"'Ferruccio Busoni' International Piano Competition","region":"볼차노","lat":46.4982953},{"country":"이탈리아","lng":10.2118019,"data":[{"year":2010,"grade":2,"name":"조가현","birth":"","instrument":"바이올린","video":""}],"id":92,"compname":"'Citta di Brescia' International Violin Competition","region":"브레시아","lat":45.5415526},{"country":"이탈리아","lng":10.3279036,"data":[{"year":2017,"grade":2,"name":"차웅","birth":"1984\/1위없음","instrument":"지휘","video":"https:\/\/youtu.be\/jRZipEFA-T4"}],"id":93,"compname":"'Arturo Toscanini' International Conducting Competition","region":"파르마","lat":44.801485},{"country":"이탈리아","lng":12.6426604,"data":[{"year":2002,"grade":2,"name":"윤홍천","birth":"1982\/1위없음","instrument":"피아노`","video":"https:\/\/youtu.be\/aROYCk2o_d0"}],"id":94,"compname":"'Alessandro Casagrande' International Piano Competition","region":"테르니","lat":42.5636168},{"country":"이탈리아","lng":8.6116796,"data":[{"year":2010,"grade":1,"name":"강경묵","birth":1987,"instrument":"작곡","video":"https:\/\/youtu.be\/X8UT0trB6ek"}],"id":95,"compname":"'Michele Pittaluga' International Classical Guitar and Composition Competition","region":"알레산드리아","lat":44.9072727}]